{
  "type": "FeatureCollection",
  "generator": "overpass-turbo",
  "copyright": "The data included in this document is from www.openstreetmap.org. The data is made available under ODbL.",
  "timestamp": "2025-08-06T15:48:41Z",
  "features": [
    {
      "type": "Feature",
      "properties": {
        "@id": "node/31288741",
        "amenity": "restaurant",
        "name": "Terazza"
      },
      "geometry": {
        "type": "Point",
        "coordinates": [
          107.5811614,
          -6.8869435
        ]
      },
      "id": "node/31288741"
    },
    {
      "type": "Feature",
      "properties": {
        "@id": "node/31288745",
        "amenity": "restaurant",
        "name": "Inti Laut"
      },
      "geometry": {
        "type": "Point",
        "coordinates": [
          107.5816872,
          -6.8873695
        ]
      },
      "id": "node/31288745"
    },
    {
      "type": "Feature",
      "properties": {
        "@id": "node/32041537",
        "amenity": "restaurant",
        "name": "Grace"
      },
      "geometry": {
        "type": "Point",
        "coordinates": [
          107.5944013,
          -6.8815495
        ]
      },
      "id": "node/32041537"
    },
    {
      "type": "Feature",
      "properties": {
        "@id": "node/32041585",
        "amenity": "restaurant",
        "created_by": "JOSM",
        "name": "Tomodachi"
      },
      "geometry": {
        "type": "Point",
        "coordinates": [
          107.5959997,
          -6.8807109
        ]
      },
      "id": "node/32041585"
    },
    {
      "type": "Feature",
      "properties": {
        "@id": "node/32041593",
        "addr:city": "Bandung",
        "addr:housenumber": "174",
        "addr:street": "Jl. Setiabudhi",
        "amenity": "restaurant",
        "name": "Suis Butcher Steak House"
      },
      "geometry": {
        "type": "Point",
        "coordinates": [
          107.5940509,
          -6.8715552
        ]
      },
      "id": "node/32041593"
    },
    {
      "type": "Feature",
      "properties": {
        "@id": "node/32041600",
        "amenity": "restaurant",
        "name": "Ikan Bakar Pak Chi Met"
      },
      "geometry": {
        "type": "Point",
        "coordinates": [
          107.5962969,
          -6.8858733
        ]
      },
      "id": "node/32041600"
    },
    {
      "type": "Feature",
      "properties": {
        "@id": "node/32041651",
        "amenity": "restaurant",
        "name": "Ikan Bakar Cianjur"
      },
      "geometry": {
        "type": "Point",
        "coordinates": [
          107.5964539,
          -6.8752093
        ]
      },
      "id": "node/32041651"
    },
    {
      "type": "Feature",
      "properties": {
        "@id": "node/32041698",
        "addr:city": "Bandung",
        "addr:housenumber": "171",
        "addr:street": "Jalan Cipaganti",
        "amenity": "restaurant",
        "name": "Ny. Suharti"
      },
      "geometry": {
        "type": "Point",
        "coordinates": [
          107.6012683,
          -6.8843694
        ]
      },
      "id": "node/32041698"
    },
    {
      "type": "Feature",
      "properties": {
        "@id": "node/32041903",
        "addr:city": "Bandung, Jawa Barat",
        "addr:housenumber": "160",
        "addr:street": "Jalan Pasirkaliki",
        "amenity": "restaurant",
        "cuisine": "regional",
        "name": "Bumbu Desa Pasir Kaliki"
      },
      "geometry": {
        "type": "Point",
        "coordinates": [
          107.5978878,
          -6.9027926
        ]
      },
      "id": "node/32041903"
    },
    {
      "type": "Feature",
      "properties": {
        "@id": "way/32388776",
        "air_conditioning": "yes",
        "amenity": "fast_food",
        "branch": "Pasir Kaliki",
        "brand": "McDonald's",
        "brand:wikidata": "Q38076",
        "building": "yes",
        "cuisine": "burger;chicken",
        "diet:halal": "only",
        "drive_through": "yes",
        "internet_access": "wlan",
        "name": "McDonald's",
        "takeaway": "yes",
        "wikidata": "Q111754759",
        "@geometry": "center"
      },
      "geometry": {
        "type": "Point",
        "coordinates": [
          107.5972523,
          -6.9061592
        ]
      },
      "id": "way/32388776"
    },
    {
      "type": "Feature",
      "properties": {
        "@id": "node/32519040",
        "amenity": "restaurant",
        "created_by": "JOSM",
        "name": "Sapu Lidi"
      },
      "geometry": {
        "type": "Point",
        "coordinates": [
          107.6036158,
          -6.8977742
        ]
      },
      "id": "node/32519040"
    },
    {
      "type": "Feature",
      "properties": {
        "@id": "node/32519044",
        "addr:city": "Bandung",
        "addr:housenumber": "1",
        "addr:postcode": "40163",
        "addr:street": "Jalan Setra Ria",
        "amenity": "restaurant",
        "cuisine": "seafood",
        "name": "Raja Rasa"
      },
      "geometry": {
        "type": "Point",
        "coordinates": [
          107.5838387,
          -6.8799127
        ]
      },
      "id": "node/32519044"
    },
    {
      "type": "Feature",
      "properties": {
        "@id": "node/32519045",
        "amenity": "restaurant",
        "name": "Oishii Steak"
      },
      "geometry": {
        "type": "Point",
        "coordinates": [
          107.5931889,
          -6.9058695
        ]
      },
      "id": "node/32519045"
    },
    {
      "type": "Feature",
      "properties": {
        "@id": "node/32519051",
        "addr:city": "Cihapit, Bandung, Jawa Barat",
        "addr:housenumber": "67",
        "addr:street": "Jalan R.E. Martadinata",
        "amenity": "restaurant",
        "name": "Dakken"
      },
      "geometry": {
        "type": "Point",
        "coordinates": [
          107.6176217,
          -6.9057417
        ]
      },
      "id": "node/32519051"
    },
    {
      "type": "Feature",
      "properties": {
        "@id": "node/32519055",
        "amenity": "restaurant",
        "name": "Simpang Raya"
      },
      "geometry": {
        "type": "Point",
        "coordinates": [
          107.6195912,
          -6.8990133
        ]
      },
      "id": "node/32519055"
    },
    {
      "type": "Feature",
      "properties": {
        "@id": "node/32519056",
        "addr:city": "Bandung, Jawa BArat",
        "addr:housenumber": "53",
        "addr:street": "Jl. Surapati",
        "amenity": "restaurant",
        "name": "Sindang Reret"
      },
      "geometry": {
        "type": "Point",
        "coordinates": [
          107.6197139,
          -6.8990098
        ]
      },
      "id": "node/32519056"
    },
    {
      "type": "Feature",
      "properties": {
        "@id": "node/32519294",
        "amenity": "restaurant",
        "name": "Tamani"
      },
      "geometry": {
        "type": "Point",
        "coordinates": [
          107.6103851,
          -6.9056137
        ]
      },
      "id": "node/32519294"
    },
    {
      "type": "Feature",
      "properties": {
        "@id": "node/32519340",
        "amenity": "restaurant",
        "name": "Yoghurt Cisangkuy"
      },
      "geometry": {
        "type": "Point",
        "coordinates": [
          107.6214397,
          -6.9018456
        ]
      },
      "id": "node/32519340"
    },
    {
      "type": "Feature",
      "properties": {
        "@id": "node/32519342",
        "addr:housenumber": "41",
        "addr:postcode": "40114",
        "addr:street": "Jalan Cilaki",
        "amenity": "restaurant",
        "name": "Road Cafe"
      },
      "geometry": {
        "type": "Point",
        "coordinates": [
          107.6271646,
          -6.9055352
        ]
      },
      "id": "node/32519342"
    },
    {
      "type": "Feature",
      "properties": {
        "@id": "node/32520411",
        "alt_name": "Dunkin' Donuts",
        "amenity": "fast_food",
        "branch": "Donut Dago",
        "brand": "Dunkin'",
        "brand:wikidata": "Q847743",
        "cuisine": "donut;coffee_shop",
        "name": "Dunkin'",
        "name:en": "Dunkin Donuts",
        "takeaway": "yes"
      },
      "geometry": {
        "type": "Point",
        "coordinates": [
          107.6115579,
          -6.9019586
        ]
      },
      "id": "node/32520411"
    },
    {
      "type": "Feature",
      "properties": {
        "@id": "way/119419848",
        "addr:city": "Bandung",
        "addr:postcode": "40132",
        "addr:street": "Jalan E ITB",
        "amenity": "restaurant",
        "building": "university",
        "building:levels": "2",
        "building:roof": "concrete",
        "building:structure": "reinforced_masonry",
        "building:use": "education",
        "building:walls": "brick",
        "name": "Labtek Biru ITB",
        "@geometry": "center"
      },
      "geometry": {
        "type": "Point",
        "coordinates": [
          107.6094497,
          -6.8892582
        ]
      },
      "id": "way/119419848"
    },
    {
      "type": "Feature",
      "properties": {
        "@id": "way/119419921",
        "addr:city": "Bandung",
        "addr:postcode": "40132",
        "addr:street": "Jalan Haji ITB",
        "amenity": "restaurant",
        "building": "yes",
        "building:levels": "1",
        "building:roof": "asbestos",
        "building:structure": "confined_masonry",
        "building:use": "education",
        "building:walls": "brick",
        "name": "Kantin East Corner ITB",
        "@geometry": "center"
      },
      "geometry": {
        "type": "Point",
        "coordinates": [
          107.6127589,
          -6.8887611
        ]
      },
      "id": "way/119419921"
    },
    {
      "type": "Feature",
      "properties": {
        "@id": "way/119437949",
        "amenity": "restaurant",
        "building": "yes",
        "building:levels": "1",
        "building:roof": "tile",
        "building:structure": "reinforced_masonry",
        "building:use": "commercial",
        "building:walls": "brick",
        "cuisine": "italian",
        "name": "Warung Pasta",
        "opening_hours": "Mo-Fr 08:00-15:00",
        "@geometry": "center"
      },
      "geometry": {
        "type": "Point",
        "coordinates": [
          107.612508,
          -6.8934145
        ]
      },
      "id": "way/119437949"
    },
    {
      "type": "Feature",
      "properties": {
        "@id": "way/119437950",
        "addr:city": "Bandung",
        "addr:housenumber": "113",
        "addr:postcode": "40132",
        "addr:street": "Jalan Ir. H. Juanda",
        "amenity": "restaurant",
        "building": "yes",
        "building:levels": "1",
        "building:roof": "tile",
        "building:structure": "reinforced_masonry",
        "building:use": "commercial",
        "building:walls": "brick",
        "name": "Babakaran x Taichi \"Goreng\"",
        "opening_hours": "Mo-Fr 08:00-15:00",
        "shop": "clothes",
        "@geometry": "center"
      },
      "geometry": {
        "type": "Point",
        "coordinates": [
          107.6124162,
          -6.8926104
        ]
      },
      "id": "way/119437950"
    },
    {
      "type": "Feature",
      "properties": {
        "@id": "way/119440785",
        "addr:city": "Bandung, Jawa Barat",
        "addr:housenumber": "70",
        "addr:postcode": "40132",
        "addr:street": "Jalan Insinyur Haji Juanda",
        "amenity": "cafe",
        "building": "yes",
        "building:levels": "1",
        "building:roof": "tile",
        "building:structure": "reinforced_masonry",
        "building:use": "commercial",
        "building:walls": "brick",
        "cuisine": "coffee_shop",
        "name": "Jabarano Coffee",
        "opening_hours": "Mo-Fr 08:00-17:00",
        "@geometry": "center"
      },
      "geometry": {
        "type": "Point",
        "coordinates": [
          107.6132661,
          -6.8976206
        ]
      },
      "id": "way/119440785"
    },
    {
      "type": "Feature",
      "properties": {
        "@id": "way/119445947",
        "amenity": "restaurant",
        "building": "yes",
        "building:levels": "1",
        "building:roof": "tile",
        "building:structure": "reinforced_masonry",
        "building:use": "commercial",
        "building:walls": "brick",
        "cuisine": "Tea;asian;pasta",
        "name": "Bosscha Space",
        "opening_hours": "Mo-Su 09:00-21:00",
        "outdoor_seating": "yes",
        "website": "https://linktr.ee/bosschaspace",
        "@geometry": "center"
      },
      "geometry": {
        "type": "Point",
        "coordinates": [
          107.6133396,
          -6.8959889
        ]
      },
      "id": "way/119445947"
    },
    {
      "type": "Feature",
      "properties": {
        "@id": "way/119452898",
        "air_conditioning": "yes",
        "amenity": "fast_food",
        "brand": "McDonald's",
        "brand:wikidata": "Q38076",
        "building": "yes",
        "building:levels": "2",
        "building:roof": "beton (concrete)",
        "building:structure": "reinforced_masonry",
        "building:use": "commercial",
        "building:walls": "brick",
        "cuisine": "burger",
        "diet:halal": "only",
        "name": "McDonald's",
        "opening_hours": "24/7",
        "takeaway": "yes",
        "@geometry": "center"
      },
      "geometry": {
        "type": "Point",
        "coordinates": [
          107.6134558,
          -6.8849496
        ]
      },
      "id": "way/119452898"
    },
    {
      "type": "Feature",
      "properties": {
        "@id": "way/119758350",
        "alt_name": "Hoka Hoka Bento",
        "amenity": "fast_food",
        "brand": "HokBen",
        "brand:wikidata": "Q5877948",
        "building": "yes",
        "building:levels": "3",
        "building:roof": "concrete",
        "building:structure": "reinforced_masonry",
        "building:use": "commercial",
        "building:walls": "brick",
        "cuisine": "japanese",
        "name": "HokBen",
        "opening_hours": "Mo-Su 08:30-20:00",
        "takeaway": "yes",
        "@geometry": "center"
      },
      "geometry": {
        "type": "Point",
        "coordinates": [
          107.610203,
          -6.9077384
        ]
      },
      "id": "way/119758350"
    },
    {
      "type": "Feature",
      "properties": {
        "@id": "way/119758970",
        "alt_name": "Kentucky Fried Chicken",
        "amenity": "fast_food",
        "brand": "KFC",
        "brand:wikidata": "Q524757",
        "brand:wikipedia": "en:KFC",
        "building": "yes",
        "building:levels": "2",
        "building:roof": "concrete",
        "building:structure": "reinforced_masonry",
        "building:use": "commercial",
        "building:walls": "brick",
        "cuisine": "chicken",
        "name": "KFC",
        "opening_hours": "24/7",
        "takeaway": "yes",
        "@geometry": "center"
      },
      "geometry": {
        "type": "Point",
        "coordinates": [
          107.6101025,
          -6.9081823
        ]
      },
      "id": "way/119758970"
    },
    {
      "type": "Feature",
      "properties": {
        "@id": "way/119758975",
        "amenity": "cafe",
        "building": "yes",
        "building:levels": "2",
        "building:roof": "asbestos",
        "building:structure": "reinforced_masonry",
        "building:use": "commercial",
        "building:walls": "brick",
        "name": "Ngopi Doeloe Cafe",
        "@geometry": "center"
      },
      "geometry": {
        "type": "Point",
        "coordinates": [
          107.6098215,
          -6.9083758
        ]
      },
      "id": "way/119758975"
    },
    {
      "type": "Feature",
      "properties": {
        "@id": "way/119759896",
        "alt_name": "Dunkin' Donuts",
        "amenity": "fast_food",
        "branch": "Donut",
        "brand": "Dunkin'",
        "brand:wikidata": "Q847743",
        "building": "yes",
        "building:levels": "2",
        "building:roof": "concrete",
        "building:structure": "reinforced_masonry",
        "building:use": "commercial",
        "building:walls": "brick",
        "cuisine": "donut;coffee_shop",
        "name": "Dunkin'",
        "takeaway": "yes",
        "@geometry": "center"
      },
      "geometry": {
        "type": "Point",
        "coordinates": [
          107.6104247,
          -6.9084336
        ]
      },
      "id": "way/119759896"
    },
    {
      "type": "Feature",
      "properties": {
        "@id": "way/119760342",
        "amenity": "restaurant",
        "building": "yes",
        "building:levels": "3",
        "building:roof": "concrete",
        "building:structure": "reinforced_masonry",
        "building:use": "commercial",
        "building:walls": "brick",
        "name": "Bakso Malang Karapitan",
        "@geometry": "center"
      },
      "geometry": {
        "type": "Point",
        "coordinates": [
          107.6103744,
          -6.9095647
        ]
      },
      "id": "way/119760342"
    },
    {
      "type": "Feature",
      "properties": {
        "@id": "way/119760376",
        "air_conditioning": "yes",
        "alt_name": "J.Co Donuts and Coffee",
        "amenity": "fast_food",
        "branch": "Merdeka",
        "brand": "J.Co Donuts'",
        "brand:wikidata": "Q4260444",
        "building": "yes",
        "building:levels": "1",
        "building:roof": "tile",
        "building:structure": "reinforced_masonry",
        "building:use": "commercial",
        "building:walls": "brick",
        "cuisine": "donut;coffee_shop",
        "diet:halal": "only",
        "drive_through": "no",
        "name": "J.Co",
        "takeaway": "yes",
        "@geometry": "center"
      },
      "geometry": {
        "type": "Point",
        "coordinates": [
          107.6108579,
          -6.9094945
        ]
      },
      "id": "way/119760376"
    },
    {
      "type": "Feature",
      "properties": {
        "@id": "way/124469759",
        "amenity": "restaurant",
        "building": "house",
        "building:levels": "2",
        "building:roof": "asbestos",
        "building:structure": "reinforced_masonry",
        "building:use": "commercial",
        "building:walls": "brick",
        "@geometry": "center"
      },
      "geometry": {
        "type": "Point",
        "coordinates": [
          107.614959,
          -6.884638
        ]
      },
      "id": "way/124469759"
    },
    {
      "type": "Feature",
      "properties": {
        "@id": "way/124817379",
        "amenity": "restaurant",
        "building": "yes",
        "building:levels": "1",
        "building:roof": "tile",
        "building:structure": "reinforced_masonry",
        "building:use": "shop",
        "building:walls": "brick",
        "cuisine": "sundanese",
        "name": "Rumah Makan Ampera",
        "@geometry": "center"
      },
      "geometry": {
        "type": "Point",
        "coordinates": [
          107.6226376,
          -6.8860058
        ]
      },
      "id": "way/124817379"
    },
    {
      "type": "Feature",
      "properties": {
        "@id": "way/125177127",
        "amenity": "restaurant",
        "building": "yes",
        "name": "Centrum",
        "@geometry": "center"
      },
      "geometry": {
        "type": "Point",
        "coordinates": [
          107.6162724,
          -6.9125366
        ]
      },
      "id": "way/125177127"
    },
    {
      "type": "Feature",
      "properties": {
        "@id": "way/153517672",
        "addr:city": "Bandung",
        "addr:full": "Jl Tamansari No P-2",
        "addr:housenumber": "98",
        "addr:postcode": "40132",
        "alt_name": "Baltos",
        "building": "supermarket",
        "cuisine": "Cookies",
        "internet_access": "no",
        "name": "Balubur Town Square",
        "old_name": "pasar tradisional balubur",
        "opening_hours": "Sa-Su 11:00-22:00",
        "phone": "+6282121434141",
        "shop": "mall",
        "smoking": "outside",
        "source": "S2City_POI_2022",
        "website": "www.bigcinnamon.com",
        "wheelchair": "no",
        "@geometry": "center"
      },
      "geometry": {
        "type": "Point",
        "coordinates": [
          107.6084717,
          -6.8987228
        ]
      },
      "id": "way/153517672"
    },
    {
      "type": "Feature",
      "properties": {
        "@id": "way/157803724",
        "alt_name": "Kentucky Fried Chicken",
        "brand": "KFC",
        "brand:wikidata": "Q524757",
        "brand:wikipedia": "en:KFC",
        "building": "retail",
        "cuisine": "chicken",
        "name": "KFC",
        "takeaway": "yes",
        "@geometry": "center"
      },
      "geometry": {
        "type": "Point",
        "coordinates": [
          107.5978322,
          -6.9067737
        ]
      },
      "id": "way/157803724"
    },
    {
      "type": "Feature",
      "properties": {
        "@id": "way/174262612",
        "amenity": "restaurant",
        "internet_access": "no",
        "internet_access:fee": "no",
        "name": "Rumah Makan Padang Sederhana",
        "operator": "Indonesia",
        "smoking": "no",
        "wheelchair": "no",
        "@geometry": "center"
      },
      "geometry": {
        "type": "Point",
        "coordinates": [
          107.6004929,
          -6.8830433
        ]
      },
      "id": "way/174262612"
    },
    {
      "type": "Feature",
      "properties": {
        "@id": "way/219361659",
        "addr:city": "Bandung",
        "addr:postcode": "40135",
        "addr:street": "Jalan Bukit Dago Selatan",
        "amenity": "cafe",
        "building": "yes",
        "name": "Choosy Coffe",
        "@geometry": "center"
      },
      "geometry": {
        "type": "Point",
        "coordinates": [
          107.6202102,
          -6.8696313
        ]
      },
      "id": "way/219361659"
    },
    {
      "type": "Feature",
      "properties": {
        "@id": "way/297869548",
        "amenity": "food_court",
        "building": "yes",
        "cuisine": "regional",
        "name": "Gelap Nyawang",
        "@geometry": "center"
      },
      "geometry": {
        "type": "Point",
        "coordinates": [
          107.6106741,
          -6.8950264
        ]
      },
      "id": "way/297869548"
    },
    {
      "type": "Feature",
      "properties": {
        "@id": "way/299050938",
        "addr:city": "Bandung, Jawa Barat",
        "addr:housenumber": "177",
        "addr:postcode": "40132",
        "addr:street": "Ir. H. Juanda",
        "alt_name": "Hoka Hoka Bento",
        "amenity": "fast_food",
        "brand": "HokBen",
        "brand:wikidata": "Q5877948",
        "building": "yes",
        "cuisine": "japanese",
        "name": "HokBen",
        "phone": "+62 22 2503005",
        "takeaway": "yes",
        "@geometry": "center"
      },
      "geometry": {
        "type": "Point",
        "coordinates": [
          107.6134115,
          -6.8854337
        ]
      },
      "id": "way/299050938"
    },
    {
      "type": "Feature",
      "properties": {
        "@id": "way/299082464",
        "addr:city": "Bandung, Jawa Barat",
        "addr:street": "Badak Singa",
        "amenity": "restaurant",
        "building": "yes",
        "cuisine": "Lumpia",
        "name": "Lumpia Semarang",
        "@geometry": "center"
      },
      "geometry": {
        "type": "Point",
        "coordinates": [
          107.6108057,
          -6.8970599
        ]
      },
      "id": "way/299082464"
    },
    {
      "type": "Feature",
      "properties": {
        "@id": "way/299103743",
        "addr:city": "Bandung, Jawa Barat",
        "addr:street": "Sulanjana",
        "amenity": "restaurant",
        "building": "yes",
        "name": "Bebek Garang",
        "@geometry": "center"
      },
      "geometry": {
        "type": "Point",
        "coordinates": [
          107.6109201,
          -6.9000508
        ]
      },
      "id": "way/299103743"
    },
    {
      "type": "Feature",
      "properties": {
        "@id": "way/327929452",
        "amenity": "restaurant",
        "building": "yes",
        "cuisine": "Batak_food",
        "designation": "restaurant",
        "name": "Lapo Gundaling",
        "@geometry": "center"
      },
      "geometry": {
        "type": "Point",
        "coordinates": [
          107.6181972,
          -6.8979358
        ]
      },
      "id": "way/327929452"
    },
    {
      "type": "Feature",
      "properties": {
        "@id": "way/344184000",
        "amenity": "restaurant",
        "building": "yes",
        "name": "Colombia",
        "@geometry": "center"
      },
      "geometry": {
        "type": "Point",
        "coordinates": [
          107.6127724,
          -6.8934553
        ]
      },
      "id": "way/344184000"
    },
    {
      "type": "Feature",
      "properties": {
        "@id": "way/376347946",
        "amenity": "cafe",
        "building": "yes",
        "cuisine": "regional",
        "internet_access": "wlan",
        "name": "Kafe Halaman",
        "@geometry": "center"
      },
      "geometry": {
        "type": "Point",
        "coordinates": [
          107.6117715,
          -6.8852743
        ]
      },
      "id": "way/376347946"
    },
    {
      "type": "Feature",
      "properties": {
        "@id": "way/376352095",
        "amenity": "restaurant",
        "building": "yes",
        "cuisine": "western",
        "name": "Noah's Barn",
        "@geometry": "center"
      },
      "geometry": {
        "type": "Point",
        "coordinates": [
          107.6125193,
          -6.8868724
        ]
      },
      "id": "way/376352095"
    },
    {
      "type": "Feature",
      "properties": {
        "@id": "way/376352097",
        "building": "yes",
        "cuisine": "western",
        "@geometry": "center"
      },
      "geometry": {
        "type": "Point",
        "coordinates": [
          107.6127303,
          -6.8877797
        ]
      },
      "id": "way/376352097"
    },
    {
      "type": "Feature",
      "properties": {
        "@id": "way/376352098",
        "amenity": "restaurant",
        "building": "yes",
        "name": "Wijdeblik",
        "@geometry": "center"
      },
      "geometry": {
        "type": "Point",
        "coordinates": [
          107.6118944,
          -6.8867032
        ]
      },
      "id": "way/376352098"
    },
    {
      "type": "Feature",
      "properties": {
        "@id": "way/376352100",
        "amenity": "restaurant",
        "building": "yes",
        "cuisine": "regional",
        "name": "Toko You",
        "@geometry": "center"
      },
      "geometry": {
        "type": "Point",
        "coordinates": [
          107.6136472,
          -6.8950573
        ]
      },
      "id": "way/376352100"
    },
    {
      "type": "Feature",
      "properties": {
        "@id": "way/376352102",
        "amenity": "restaurant",
        "building": "yes",
        "cuisine": "regional",
        "name": "Soto Padang Uda Ujang",
        "@geometry": "center"
      },
      "geometry": {
        "type": "Point",
        "coordinates": [
          107.6175357,
          -6.896054
        ]
      },
      "id": "way/376352102"
    },
    {
      "type": "Feature",
      "properties": {
        "@id": "way/376352103",
        "amenity": "restaurant",
        "building": "yes",
        "capacity": "20",
        "cuisine": "regional",
        "name": "Lontong Medan Kak Zahra",
        "takeaway": "yes",
        "@geometry": "center"
      },
      "geometry": {
        "type": "Point",
        "coordinates": [
          107.617519,
          -6.8920631
        ]
      },
      "id": "way/376352103"
    },
    {
      "type": "Feature",
      "properties": {
        "@id": "way/376352104",
        "amenity": "restaurant",
        "building": "yes",
        "capacity": "50",
        "cuisine": "regional",
        "name": "Boga Raso",
        "@geometry": "center"
      },
      "geometry": {
        "type": "Point",
        "coordinates": [
          107.6149137,
          -6.8860489
        ]
      },
      "id": "way/376352104"
    },
    {
      "type": "Feature",
      "properties": {
        "@id": "way/376352105",
        "air_conditioning": "no",
        "amenity": "restaurant",
        "branch": "Dipatiukur",
        "brand": "Mie Gacoan",
        "brand:wikidata": "Q111995141",
        "building": "yes",
        "capacity": "50",
        "cuisine": "noodle",
        "diet:halal": "only",
        "name": "Mie Gacoan",
        "smoking": "yes",
        "takeaway": "yes",
        "@geometry": "center"
      },
      "geometry": {
        "type": "Point",
        "coordinates": [
          107.6135268,
          -6.8979106
        ]
      },
      "id": "way/376352105"
    },
    {
      "type": "Feature",
      "properties": {
        "@id": "way/376352107",
        "building": "yes",
        "capacity": "50",
        "cuisine": "regional",
        "smoking": "separated",
        "takeaway": "yes",
        "@geometry": "center"
      },
      "geometry": {
        "type": "Point",
        "coordinates": [
          107.6107068,
          -6.8993191
        ]
      },
      "id": "way/376352107"
    },
    {
      "type": "Feature",
      "properties": {
        "@id": "way/376352109",
        "amenity": "restaurant",
        "building": "yes",
        "capacity": "100",
        "cuisine": "japanese",
        "name": "Midori",
        "smoking": "isolated",
        "@geometry": "center"
      },
      "geometry": {
        "type": "Point",
        "coordinates": [
          107.6154511,
          -6.9035462
        ]
      },
      "id": "way/376352109"
    },
    {
      "type": "Feature",
      "properties": {
        "@id": "way/376352116",
        "amenity": "restaurant",
        "building": "yes",
        "cuisine": "arab",
        "name": "Qahwa",
        "@geometry": "center"
      },
      "geometry": {
        "type": "Point",
        "coordinates": [
          107.6173065,
          -6.9044472
        ]
      },
      "id": "way/376352116"
    },
    {
      "type": "Feature",
      "properties": {
        "@id": "way/376352118",
        "amenity": "cafe",
        "building": "yes",
        "name": "Hummingbird",
        "@geometry": "center"
      },
      "geometry": {
        "type": "Point",
        "coordinates": [
          107.6178898,
          -6.9049636
        ]
      },
      "id": "way/376352118"
    },
    {
      "type": "Feature",
      "properties": {
        "@id": "way/376352122",
        "amenity": "restaurant",
        "building": "yes",
        "capacity": "100",
        "cuisine": "steamboat",
        "name": "Don Woori",
        "@geometry": "center"
      },
      "geometry": {
        "type": "Point",
        "coordinates": [
          107.6202927,
          -6.9067984
        ]
      },
      "id": "way/376352122"
    },
    {
      "type": "Feature",
      "properties": {
        "@id": "way/376352125",
        "amenity": "restaurant",
        "building": "yes",
        "cuisine": "regional",
        "name": "Sambel Hejo",
        "@geometry": "center"
      },
      "geometry": {
        "type": "Point",
        "coordinates": [
          107.6162123,
          -6.9166445
        ]
      },
      "id": "way/376352125"
    },
    {
      "type": "Feature",
      "properties": {
        "@id": "way/376352127",
        "amenity": "fast_food",
        "building": "commercial",
        "cuisine": "fried_chicken",
        "name": "Texas Chicken",
        "@geometry": "center"
      },
      "geometry": {
        "type": "Point",
        "coordinates": [
          107.6177145,
          -6.9182527
        ]
      },
      "id": "way/376352127"
    },
    {
      "type": "Feature",
      "properties": {
        "@id": "way/376352128",
        "amenity": "cafe",
        "building": "yes",
        "cuisine": "regional",
        "name": "Lekker",
        "@geometry": "center"
      },
      "geometry": {
        "type": "Point",
        "coordinates": [
          107.6173874,
          -6.9226088
        ]
      },
      "id": "way/376352128"
    },
    {
      "type": "Feature",
      "properties": {
        "@id": "way/376352129",
        "amenity": "restaurant",
        "building": "yes",
        "cuisine": "regional",
        "name": "Bakso Avon",
        "@geometry": "center"
      },
      "geometry": {
        "type": "Point",
        "coordinates": [
          107.6185421,
          -6.9216551
        ]
      },
      "id": "way/376352129"
    },
    {
      "type": "Feature",
      "properties": {
        "@id": "way/376352629",
        "amenity": "restaurant",
        "building": "yes",
        "cuisine": "regional",
        "name": "Bakso Semar",
        "@geometry": "center"
      },
      "geometry": {
        "type": "Point",
        "coordinates": [
          107.6036361,
          -6.9000911
        ]
      },
      "id": "way/376352629"
    },
    {
      "type": "Feature",
      "properties": {
        "@id": "way/376628478",
        "amenity": "restaurant",
        "building": "yes",
        "capacity": "50",
        "cuisine": "Noodle,_Bakso",
        "name": "Mie Linggarjati",
        "smoking": "separated",
        "takeaway": "yes",
        "@geometry": "center"
      },
      "geometry": {
        "type": "Point",
        "coordinates": [
          107.6076882,
          -6.9229032
        ]
      },
      "id": "way/376628478"
    },
    {
      "type": "Feature",
      "properties": {
        "@id": "way/376628479",
        "amenity": "cafe",
        "building": "yes",
        "cuisine": "coffee_bean_shop",
        "name": "Kopi Aroma",
        "smoking": "separated",
        "@geometry": "center"
      },
      "geometry": {
        "type": "Point",
        "coordinates": [
          107.6062333,
          -6.9174741
        ]
      },
      "id": "way/376628479"
    },
    {
      "type": "Feature",
      "properties": {
        "@id": "way/377299607",
        "amenity": "restaurant",
        "building": "yes",
        "@geometry": "center"
      },
      "geometry": {
        "type": "Point",
        "coordinates": [
          107.6148841,
          -6.8827047
        ]
      },
      "id": "way/377299607"
    },
    {
      "type": "Feature",
      "properties": {
        "@id": "way/377299616",
        "amenity": "restaurant",
        "building": "yes",
        "name": "Ayam Goreng & Bakar Pringgodani",
        "@geometry": "center"
      },
      "geometry": {
        "type": "Point",
        "coordinates": [
          107.616023,
          -6.8798468
        ]
      },
      "id": "way/377299616"
    },
    {
      "type": "Feature",
      "properties": {
        "@id": "way/377299618",
        "amenity": "restaurant",
        "name": "BEKLI",
        "@geometry": "center"
      },
      "geometry": {
        "type": "Point",
        "coordinates": [
          107.6153094,
          -6.8820967
        ]
      },
      "id": "way/377299618"
    },
    {
      "type": "Feature",
      "properties": {
        "@id": "way/377299625",
        "amenity": "restaurant",
        "name": "Bubur Pak Zaenal",
        "@geometry": "center"
      },
      "geometry": {
        "type": "Point",
        "coordinates": [
          107.6149985,
          -6.8830123
        ]
      },
      "id": "way/377299625"
    },
    {
      "type": "Feature",
      "properties": {
        "@id": "way/377299638",
        "amenity": "restaurant",
        "cuisine": "steak_house",
        "name": "Happy Cow Steak",
        "@geometry": "center"
      },
      "geometry": {
        "type": "Point",
        "coordinates": [
          107.6178271,
          -6.8761904
        ]
      },
      "id": "way/377299638"
    },
    {
      "type": "Feature",
      "properties": {
        "@id": "way/377299650",
        "amenity": "restaurant",
        "building": "residential",
        "name": "Kantin Tegal Abadi Putra",
        "@geometry": "center"
      },
      "geometry": {
        "type": "Point",
        "coordinates": [
          107.6176884,
          -6.8771097
        ]
      },
      "id": "way/377299650"
    },
    {
      "type": "Feature",
      "properties": {
        "@id": "way/377299651",
        "amenity": "restaurant",
        "name": "Kantin Tegal Abadi",
        "@geometry": "center"
      },
      "geometry": {
        "type": "Point",
        "coordinates": [
          107.6150927,
          -6.8824482
        ]
      },
      "id": "way/377299651"
    },
    {
      "type": "Feature",
      "properties": {
        "@id": "way/377299655",
        "amenity": "cafe",
        "building": "yes",
        "name": "Kedai Bobko",
        "@geometry": "center"
      },
      "geometry": {
        "type": "Point",
        "coordinates": [
          107.6159234,
          -6.8820055
        ]
      },
      "id": "way/377299655"
    },
    {
      "type": "Feature",
      "properties": {
        "@id": "way/377299656",
        "amenity": "restaurant",
        "name": "Kedai Mie Dago",
        "@geometry": "center"
      },
      "geometry": {
        "type": "Point",
        "coordinates": [
          107.615173,
          -6.882229
        ]
      },
      "id": "way/377299656"
    },
    {
      "type": "Feature",
      "properties": {
        "@id": "way/377299659",
        "amenity": "restaurant",
        "building": "yes",
        "name": "Lumbang Rasa",
        "@geometry": "center"
      },
      "geometry": {
        "type": "Point",
        "coordinates": [
          107.6167564,
          -6.8776167
        ]
      },
      "id": "way/377299659"
    },
    {
      "type": "Feature",
      "properties": {
        "@id": "way/377299667",
        "addr:city": "Bandung",
        "addr:housenumber": "Jl. Ir. H. Juanda No.314A, RT.1/RW.1, Dago, Kecamatan Coblong, Kota Bandung, Jawa Barat 40135",
        "addr:postcode": "40135",
        "addr:street": "Jalan Insinyur Haji Juanda",
        "amenity": "cafe",
        "building": "yes",
        "cuisine": "ice_cream;tea",
        "name": "MIXUE Dago",
        "opening_hours": "Mo-Su 10:30-21:30",
        "@geometry": "center"
      },
      "geometry": {
        "type": "Point",
        "coordinates": [
          107.6167447,
          -6.8789791
        ]
      },
      "id": "way/377299667"
    },
    {
      "type": "Feature",
      "properties": {
        "@id": "way/377299674",
        "amenity": "restaurant",
        "name": "Sam's Strawberry Corner",
        "@geometry": "center"
      },
      "geometry": {
        "type": "Point",
        "coordinates": [
          107.6171881,
          -6.8769184
        ]
      },
      "id": "way/377299674"
    },
    {
      "type": "Feature",
      "properties": {
        "@id": "way/377299678",
        "air_conditioning": "no",
        "amenity": "restaurant",
        "building": "retail",
        "name": "Sate Banyumas",
        "@geometry": "center"
      },
      "geometry": {
        "type": "Point",
        "coordinates": [
          107.6139039,
          -6.8851102
        ]
      },
      "id": "way/377299678"
    },
    {
      "type": "Feature",
      "properties": {
        "@id": "way/377299685",
        "amenity": "restaurant",
        "name": "Tegal Murni",
        "@geometry": "center"
      },
      "geometry": {
        "type": "Point",
        "coordinates": [
          107.6174794,
          -6.8773914
        ]
      },
      "id": "way/377299685"
    },
    {
      "type": "Feature",
      "properties": {
        "@id": "way/377299687",
        "addr:city": "Dago, Coblong, Kota Bandung, Jawa Barat",
        "addr:housenumber": "345",
        "addr:street": "Jl. Ir. H.Djuanda",
        "amenity": "restaurant",
        "name": "Thai Palace",
        "@geometry": "center"
      },
      "geometry": {
        "type": "Point",
        "coordinates": [
          107.6185876,
          -6.8748047
        ]
      },
      "id": "way/377299687"
    },
    {
      "type": "Feature",
      "properties": {
        "@id": "way/377299724",
        "amenity": "restaurant",
        "name": "Warung Colenak",
        "@geometry": "center"
      },
      "geometry": {
        "type": "Point",
        "coordinates": [
          107.6187035,
          -6.8750128
        ]
      },
      "id": "way/377299724"
    },
    {
      "type": "Feature",
      "properties": {
        "@id": "way/377299727",
        "amenity": "restaurant",
        "name": "Warung Dago 205",
        "@geometry": "center"
      },
      "geometry": {
        "type": "Point",
        "coordinates": [
          107.6150568,
          -6.8824959
        ]
      },
      "id": "way/377299727"
    },
    {
      "type": "Feature",
      "properties": {
        "@id": "way/377299729",
        "amenity": "restaurant",
        "name": "Warung Nasi Brokah",
        "@geometry": "center"
      },
      "geometry": {
        "type": "Point",
        "coordinates": [
          107.6191084,
          -6.874104
        ]
      },
      "id": "way/377299729"
    },
    {
      "type": "Feature",
      "properties": {
        "@id": "way/377299731",
        "amenity": "restaurant",
        "name": "Warung Nasi Tegal Dua Putri",
        "@geometry": "center"
      },
      "geometry": {
        "type": "Point",
        "coordinates": [
          107.618358,
          -6.8757453
        ]
      },
      "id": "way/377299731"
    },
    {
      "type": "Feature",
      "properties": {
        "@id": "way/377302805",
        "addr:city": "Dago, Coblong, Kota Bandung, Jawa Barat",
        "addr:postcode": "40135",
        "addr:street": "Jalan Insinyur Haji Juanda",
        "amenity": "cafe",
        "building": "yes",
        "name": "372 Kopi",
        "@geometry": "center"
      },
      "geometry": {
        "type": "Point",
        "coordinates": [
          107.6190505,
          -6.8753071
        ]
      },
      "id": "way/377302805"
    },
    {
      "type": "Feature",
      "properties": {
        "@id": "way/381032766",
        "addr:city": "Taman Sari, Bandung Wetan, Bandung, Jawa Barat",
        "addr:housenumber": "28",
        "addr:postcode": "40116",
        "addr:street": "Jalan Taman Sari",
        "amenity": "restaurant",
        "building": "retail",
        "cuisine": "ice_cream",
        "name": "WEDRINK @TamanSari 28",
        "@geometry": "center"
      },
      "geometry": {
        "type": "Point",
        "coordinates": [
          107.6083514,
          -6.9025073
        ]
      },
      "id": "way/381032766"
    },
    {
      "type": "Feature",
      "properties": {
        "@id": "way/383052744",
        "addr:city": "Bandung",
        "addr:housenumber": "618",
        "addr:street": "Jalan Soekarno-Hatta",
        "amenity": "restaurant",
        "cuisine": "sundanese",
        "delivery": "yes",
        "name": "Ampera",
        "name:en": "Ampera",
        "opening_hours": "09:00-22:00",
        "smoking": "yes",
        "takeaway": "yes",
        "@geometry": "center"
      },
      "geometry": {
        "type": "Point",
        "coordinates": [
          107.6644332,
          -6.9395763
        ]
      },
      "id": "way/383052744"
    },
    {
      "type": "Feature",
      "properties": {
        "@id": "way/383052751",
        "amenity": "restaurant",
        "building": "yes",
        "cuisine": "regional",
        "name": "Kantin",
        "opening_hours": "24/7",
        "smoking": "no",
        "takeaway": "yes",
        "@geometry": "center"
      },
      "geometry": {
        "type": "Point",
        "coordinates": [
          107.6694424,
          -6.9392077
        ]
      },
      "id": "way/383052751"
    },
    {
      "type": "Feature",
      "properties": {
        "@id": "way/383655705",
        "addr:city": "Bandung",
        "addr:street": "Venus Raya",
        "amenity": "fast_food",
        "brand": "Domino's",
        "brand:wikidata": "Q839466",
        "brand:wikipedia": "en:Domino's Pizza",
        "building": "yes",
        "cuisine": "pizza",
        "delivery": "yes",
        "drive_through": "no",
        "name": "Domino's",
        "short_name": "Domino's",
        "takeaway": "yes",
        "@geometry": "center"
      },
      "geometry": {
        "type": "Point",
        "coordinates": [
          107.6673145,
          -6.9401546
        ]
      },
      "id": "way/383655705"
    },
    {
      "type": "Feature",
      "properties": {
        "@id": "way/409364267",
        "addr:city": "Bandung",
        "addr:housenumber": "126",
        "addr:postcode": "40242",
        "addr:street": "Jalan Jenderal Ahmad Yani",
        "amenity": "cafe",
        "building": "yes",
        "cuisine": "regional",
        "name": "Ballroom & Karaoke",
        "@geometry": "center"
      },
      "geometry": {
        "type": "Point",
        "coordinates": [
          107.6213783,
          -6.920903
        ]
      },
      "id": "way/409364267"
    },
    {
      "type": "Feature",
      "properties": {
        "@id": "way/409367602",
        "amenity": "cafe",
        "building": "yes",
        "name": "Roti",
        "@geometry": "center"
      },
      "geometry": {
        "type": "Point",
        "coordinates": [
          107.6214744,
          -6.9205379
        ]
      },
      "id": "way/409367602"
    },
    {
      "type": "Feature",
      "properties": {
        "@id": "way/455734002",
        "addr:city": "Bandung",
        "addr:housenumber": "63",
        "addr:street": "Jl. Pajajaran",
        "amenity": "restaurant",
        "building": "yes",
        "cuisine": "asian",
        "diet:vegan": "only",
        "name": "Kehidupan Tidak Pernah Berakhir",
        "opening_hours": "Mo-Su 06:00-21:00",
        "@geometry": "center"
      },
      "geometry": {
        "type": "Point",
        "coordinates": [
          107.5983535,
          -6.9069271
        ]
      },
      "id": "way/455734002"
    },
    {
      "type": "Feature",
      "properties": {
        "@id": "way/471362397",
        "amenity": "fast_food",
        "building": "commercial",
        "cuisine": "burger",
        "delivery": "yes",
        "name": "BBQ Mountain Boys Burger",
        "outdoor_seating": "yes",
        "takeaway": "yes",
        "@geometry": "center"
      },
      "geometry": {
        "type": "Point",
        "coordinates": [
          107.5930793,
          -6.9144444
        ]
      },
      "id": "way/471362397"
    },
    {
      "type": "Feature",
      "properties": {
        "@id": "node/479720008",
        "addr:city": "Bandung",
        "addr:housenumber": "12",
        "addr:street": "Jalan Kiputih",
        "amenity": "restaurant",
        "name": "Bumi Sangkuriang",
        "opening_hours": "Mo-Su 07:00-23:00",
        "phone": "+62 22 2032661",
        "website": "https://bumi-sangkuriang.business.site/"
      },
      "geometry": {
        "type": "Point",
        "coordinates": [
          107.6090526,
          -6.8668218
        ]
      },
      "id": "node/479720008"
    },
    {
      "type": "Feature",
      "properties": {
        "@id": "way/512168742",
        "air_conditioning": "no",
        "amenity": "restaurant",
        "branch": "Paskal",
        "brand": "Mie Gacoan",
        "brand:wikidata": "Q111995141",
        "building": "yes",
        "cuisine": "noodle",
        "diet:halal": "only",
        "diet:spicy": "yes",
        "name": "Mie Gacoan",
        "opening_hours": "24/7",
        "@geometry": "center"
      },
      "geometry": {
        "type": "Point",
        "coordinates": [
          107.59712,
          -6.9013685
        ]
      },
      "id": "way/512168742"
    },
    {
      "type": "Feature",
      "properties": {
        "@id": "way/512276510",
        "addr:full": "Jalan Cihampelas No.43, Tamansari, Bandung Wetan, Kota Bandung, Jawa Barat 40116",
        "amenity": "restaurant",
        "building": "yes",
        "name": "Wastu Nanda",
        "@geometry": "center"
      },
      "geometry": {
        "type": "Point",
        "coordinates": [
          107.6042184,
          -6.9031227
        ]
      },
      "id": "way/512276510"
    },
    {
      "type": "Feature",
      "properties": {
        "@id": "way/512276655",
        "addr:full": "Jalan Cihampelas No. 57, Tamansari, Bandung Wetan, Kota Bandung, Jawa Barat 40116",
        "amenity": "restaurant",
        "building": "yes",
        "name": "Oncom Raos",
        "@geometry": "center"
      },
      "geometry": {
        "type": "Point",
        "coordinates": [
          107.6040204,
          -6.9021795
        ]
      },
      "id": "way/512276655"
    },
    {
      "type": "Feature",
      "properties": {
        "@id": "way/512335923",
        "amenity": "restaurant",
        "building": "yes",
        "cuisine": "roti_lapissandwich;ice_cream;cake",
        "diet:halal": "yes",
        "name": "Bolen lilit",
        "opening_hours": "Mo-Su 07:00-22:00",
        "takeaway": "yes",
        "@geometry": "center"
      },
      "geometry": {
        "type": "Point",
        "coordinates": [
          107.6142188,
          -6.9027069
        ]
      },
      "id": "way/512335923"
    },
    {
      "type": "Feature",
      "properties": {
        "@id": "way/512336167",
        "amenity": "restaurant",
        "building": "yes",
        "name": "The Cellar",
        "@geometry": "center"
      },
      "geometry": {
        "type": "Point",
        "coordinates": [
          107.6147917,
          -6.9002542
        ]
      },
      "id": "way/512336167"
    },
    {
      "type": "Feature",
      "properties": {
        "@id": "way/512353767",
        "amenity": "cafe",
        "bar": "yes",
        "building": "yes",
        "cuisine": "burger;pizza;coffee_shop;italian",
        "internet_access": "yes",
        "internet_access:fee": "customers",
        "name": "MASA",
        "outdoor_seating": "yes",
        "reservation": "recommended",
        "@geometry": "center"
      },
      "geometry": {
        "type": "Point",
        "coordinates": [
          107.6141727,
          -6.9020717
        ]
      },
      "id": "way/512353767"
    },
    {
      "type": "Feature",
      "properties": {
        "@id": "way/512704685",
        "addr:street": "Jalan R.E. Martadinata",
        "amenity": "restaurant",
        "building": "yes",
        "cuisine": "indonesian",
        "name": "Paviliun Sunda",
        "outdoor_seating": "yes",
        "payment:coins": "yes",
        "payment:ep_flazz": "yes",
        "payment:gpn_debit": "yes",
        "payment:jcb": "yes",
        "payment:maestro": "yes",
        "payment:mastercard": "yes",
        "payment:notes": "yes",
        "payment:unionpay": "yes",
        "payment:visa": "yes",
        "payment:visa_debit": "yes",
        "payment:visa_electron": "yes",
        "toilets": "yes",
        "toilets:access": "customers",
        "toilets:wheelchair": "limited",
        "wheelchair": "yes",
        "@geometry": "center"
      },
      "geometry": {
        "type": "Point",
        "coordinates": [
          107.6201563,
          -6.9055695
        ]
      },
      "id": "way/512704685"
    },
    {
      "type": "Feature",
      "properties": {
        "@id": "way/512704802",
        "alt_name": "Kentucky Fried Chicken",
        "amenity": "fast_food",
        "brand": "KFC",
        "brand:wikidata": "Q524757",
        "building": "yes",
        "cuisine": "chicken",
        "name": "KFC",
        "takeaway": "yes",
        "@geometry": "center"
      },
      "geometry": {
        "type": "Point",
        "coordinates": [
          107.6209567,
          -6.9062614
        ]
      },
      "id": "way/512704802"
    },
    {
      "type": "Feature",
      "properties": {
        "@id": "way/512884399",
        "amenity": "restaurant",
        "building": "yes",
        "name": "Nichi Izakaya Bar & Yakiniku",
        "@geometry": "center"
      },
      "geometry": {
        "type": "Point",
        "coordinates": [
          107.6181538,
          -6.9146215
        ]
      },
      "id": "way/512884399"
    },
    {
      "type": "Feature",
      "properties": {
        "@id": "way/512892169",
        "amenity": "cafe",
        "building": "yes",
        "name": "Critoe",
        "@geometry": "center"
      },
      "geometry": {
        "type": "Point",
        "coordinates": [
          107.6257954,
          -6.9148743
        ]
      },
      "id": "way/512892169"
    },
    {
      "type": "Feature",
      "properties": {
        "@id": "way/513014436",
        "amenity": "restaurant",
        "building": "commercial",
        "cuisine": "chicken",
        "name": "Karmila",
        "@geometry": "center"
      },
      "geometry": {
        "type": "Point",
        "coordinates": [
          107.6177082,
          -6.9183534
        ]
      },
      "id": "way/513014436"
    },
    {
      "type": "Feature",
      "properties": {
        "@id": "way/513325564",
        "amenity": "restaurant",
        "building": "yes",
        "cuisine": "regional",
        "name": "BMC (Bandoengsche Melk Centrale)",
        "@geometry": "center"
      },
      "geometry": {
        "type": "Point",
        "coordinates": [
          107.6081617,
          -6.9108583
        ]
      },
      "id": "way/513325564"
    },
    {
      "type": "Feature",
      "properties": {
        "@id": "way/514277461",
        "addr:city": "bandung",
        "addr:housenumber": "8",
        "addr:postcode": "40161",
        "addr:street": "Jalan Boscha",
        "amenity": "restaurant",
        "building": "yes",
        "cuisine": "burger;coffee_shop;sandwich",
        "delivery": "yes",
        "diet:halal": "yes",
        "diet:meat": "yes",
        "name": "BARBAR WINGS",
        "opening_hours": "Mo-Su 07:00-23:00",
        "phone": "+6285624478749",
        "website": "https://barbarwings.wordpress.com/",
        "@geometry": "center"
      },
      "geometry": {
        "type": "Point",
        "coordinates": [
          107.6013508,
          -6.8893865
        ]
      },
      "id": "way/514277461"
    },
    {
      "type": "Feature",
      "properties": {
        "@id": "way/514523448",
        "amenity": "restaurant",
        "building": "yes",
        "name": "Sari Bundo",
        "@geometry": "center"
      },
      "geometry": {
        "type": "Point",
        "coordinates": [
          107.6204198,
          -6.8978855
        ]
      },
      "id": "way/514523448"
    },
    {
      "type": "Feature",
      "properties": {
        "@id": "way/517298664",
        "addr:city": "Bandung",
        "addr:country": "ID",
        "addr:housenumber": "574",
        "addr:province": "Jawa Barat",
        "addr:street": "Jalan Soekarno-Hatta",
        "air_conditioning": "yes",
        "amenity": "fast_food",
        "brand": "Almaz Fried Chicken",
        "building": "yes",
        "cuisine": "chicken",
        "delivery": "24/7",
        "drive_through": "yes",
        "highchair": "yes",
        "internet_access": "wlan",
        "internet_access:fee": "no",
        "level": "0",
        "name": "Almaz",
        "opening_hours": "24/7",
        "opening_hours:kitchen": "24/7",
        "outdoor_seating": "yes",
        "smoking": "outside",
        "takeaway": "yes",
        "toilets": "yes",
        "toilets:access": "customers",
        "toilets:wheelchair": "limited",
        "wheelchair": "limited",
        "@geometry": "center"
      },
      "geometry": {
        "type": "Point",
        "coordinates": [
          107.6651119,
          -6.9394286
        ]
      },
      "id": "way/517298664"
    },
    {
      "type": "Feature",
      "properties": {
        "@id": "way/517298666",
        "amenity": "restaurant",
        "building": "retail",
        "name": "Ayam KQ5",
        "@geometry": "center"
      },
      "geometry": {
        "type": "Point",
        "coordinates": [
          107.6646529,
          -6.939408
        ]
      },
      "id": "way/517298666"
    },
    {
      "type": "Feature",
      "properties": {
        "@id": "way/517374741",
        "addr:city": "Braga",
        "addr:housenumber": "127",
        "addr:street": "Jalan Paledang",
        "amenity": "restaurant",
        "building": "yes",
        "name": "Mie Naripan 127",
        "takeaway": "yes",
        "@geometry": "center"
      },
      "geometry": {
        "type": "Point",
        "coordinates": [
          107.6141731,
          -6.924981
        ]
      },
      "id": "way/517374741"
    },
    {
      "type": "Feature",
      "properties": {
        "@id": "way/517806522",
        "amenity": "restaurant",
        "building": "yes",
        "name": "Banceuy Nasi Lemak",
        "@geometry": "center"
      },
      "geometry": {
        "type": "Point",
        "coordinates": [
          107.6064067,
          -6.9158473
        ]
      },
      "id": "way/517806522"
    },
    {
      "type": "Feature",
      "properties": {
        "@id": "way/519672860",
        "addr:city": "Bandung",
        "addr:housenumber": "58",
        "addr:province": "Jawa Barat",
        "addr:street": "Jalan Braga",
        "amenity": "restaurant",
        "building": "yes",
        "contact:facebook": "https://www.facebook.com/BragaPermaiBandung",
        "contact:instagram": "bragapermaibandung",
        "contact:whatsapp": "+62 822-1975-1875",
        "cuisine": "regional;indonesian;western",
        "diet:halal": "yes",
        "name": "Braga Permai",
        "old_name": "Maison Bogerijen",
        "phone": "+62 022-4233778",
        "start_date": "1923",
        "website": "https://www.bragapermai.com",
        "@geometry": "center"
      },
      "geometry": {
        "type": "Point",
        "coordinates": [
          107.6095198,
          -6.917356
        ]
      },
      "id": "way/519672860"
    },
    {
      "type": "Feature",
      "properties": {
        "@id": "way/519673107",
        "amenity": "restaurant",
        "building": "yes",
        "name": "Imperial Chinese Restaurant",
        "@geometry": "center"
      },
      "geometry": {
        "type": "Point",
        "coordinates": [
          107.6086823,
          -6.9156884
        ]
      },
      "id": "way/519673107"
    },
    {
      "type": "Feature",
      "properties": {
        "@id": "way/520143118",
        "amenity": "restaurant",
        "branch": "Setiabudi",
        "brand": "Mie Gacoan",
        "brand:wikidata": "Q111995141",
        "building": "yes",
        "cuisine": "noodle",
        "name": "Mie Gacoan",
        "@geometry": "center"
      },
      "geometry": {
        "type": "Point",
        "coordinates": [
          107.5935611,
          -6.8661648
        ]
      },
      "id": "way/520143118"
    },
    {
      "type": "Feature",
      "properties": {
        "@id": "way/520143262",
        "amenity": "cafe",
        "building": "yes",
        "name": "U Caf",
        "@geometry": "center"
      },
      "geometry": {
        "type": "Point",
        "coordinates": [
          107.5937389,
          -6.8620332
        ]
      },
      "id": "way/520143262"
    },
    {
      "type": "Feature",
      "properties": {
        "@id": "way/521696656",
        "amenity": "cafe",
        "building": "yes",
        "cuisine": "coffee_shop",
        "name": "Coffee Lab 5758",
        "@geometry": "center"
      },
      "geometry": {
        "type": "Point",
        "coordinates": [
          107.5825779,
          -6.8613391
        ]
      },
      "id": "way/521696656"
    },
    {
      "type": "Feature",
      "properties": {
        "@id": "way/521696657",
        "amenity": "cafe",
        "building": "yes",
        "name": "Coffee Lab 5758",
        "@geometry": "center"
      },
      "geometry": {
        "type": "Point",
        "coordinates": [
          107.5825954,
          -6.8612893
        ]
      },
      "id": "way/521696657"
    },
    {
      "type": "Feature",
      "properties": {
        "@id": "way/522949032",
        "amenity": "restaurant",
        "building": "yes",
        "name": "Baby Dutch Pancake",
        "@geometry": "center"
      },
      "geometry": {
        "type": "Point",
        "coordinates": [
          107.6089172,
          -6.8694884
        ]
      },
      "id": "way/522949032"
    },
    {
      "type": "Feature",
      "properties": {
        "@id": "way/522949329",
        "amenity": "restaurant",
        "building": "yes",
        "name": "Fillo Gellato",
        "@geometry": "center"
      },
      "geometry": {
        "type": "Point",
        "coordinates": [
          107.608885,
          -6.8690083
        ]
      },
      "id": "way/522949329"
    },
    {
      "type": "Feature",
      "properties": {
        "@id": "way/522949351",
        "amenity": "cafe",
        "building": "yes",
        "cuisine": "coffee_shop",
        "name": "Masagi Coffee",
        "@geometry": "center"
      },
      "geometry": {
        "type": "Point",
        "coordinates": [
          107.6065385,
          -6.8686931
        ]
      },
      "id": "way/522949351"
    },
    {
      "type": "Feature",
      "properties": {
        "@id": "way/522968085",
        "addr:city": "Bandung, Jawa Barat",
        "addr:postcode": "40134",
        "addr:street": "Jalan Cigadung Raya Barat",
        "amenity": "cafe",
        "building": "yes",
        "name": "Cafe Dante",
        "@geometry": "center"
      },
      "geometry": {
        "type": "Point",
        "coordinates": [
          107.6232347,
          -6.8675479
        ]
      },
      "id": "way/522968085"
    },
    {
      "type": "Feature",
      "properties": {
        "@id": "way/523767011",
        "amenity": "restaurant",
        "building": "yes",
        "name": "Warung Gembul",
        "@geometry": "center"
      },
      "geometry": {
        "type": "Point",
        "coordinates": [
          107.6049569,
          -6.8737843
        ]
      },
      "id": "way/523767011"
    },
    {
      "type": "Feature",
      "properties": {
        "@id": "way/530164001",
        "addr:full": "Jalan Cihampelas No.70, Tamansari, Bandung Wetan, Kota Bandung, Jawa Barat 40116",
        "amenity": "restaurant",
        "building": "restaurant",
        "name": "Warunk Upnormal",
        "@geometry": "center"
      },
      "geometry": {
        "type": "Point",
        "coordinates": [
          107.6044453,
          -6.9013525
        ]
      },
      "id": "way/530164001"
    },
    {
      "type": "Feature",
      "properties": {
        "@id": "way/530164004",
        "addr:full": "Jalan Cihampelas No.72, Tamansari, Bandung Wetan, Kota Bandung, Jawa Barat 40116",
        "amenity": "restaurant",
        "building": "restaurant",
        "name": "Ayam Goreng Raos",
        "@geometry": "center"
      },
      "geometry": {
        "type": "Point",
        "coordinates": [
          107.6044453,
          -6.9014215
        ]
      },
      "id": "way/530164004"
    },
    {
      "type": "Feature",
      "properties": {
        "@id": "way/530164007",
        "addr:full": "Jalan Cihampelas No.68, Tamansari, Bandung Wetan, Kota Bandung, Jawa Barat 40116",
        "amenity": "restaurant",
        "building": "restaurant",
        "name": "Bakso Semar",
        "@geometry": "center"
      },
      "geometry": {
        "type": "Point",
        "coordinates": [
          107.6044757,
          -6.9016231
        ]
      },
      "id": "way/530164007"
    },
    {
      "type": "Feature",
      "properties": {
        "@id": "way/530164010",
        "addr:full": "Jalan Cihampelas No.66, Tamansari, Bandung Wetan, Kota Bandung, Jawa Barat 40116",
        "amenity": "restaurant",
        "building": "restaurant",
        "name": "Betutu Lalah",
        "@geometry": "center"
      },
      "geometry": {
        "type": "Point",
        "coordinates": [
          107.6045686,
          -6.9017426
        ]
      },
      "id": "way/530164010"
    },
    {
      "type": "Feature",
      "properties": {
        "@id": "way/530164018",
        "addr:full": "Jalan Cihampelas No. 58 A, Tamansari, Bandung Wetan, Kota Bandung, Jawa Barat 40116",
        "amenity": "cafe",
        "building": "cafe",
        "name": "Gonzo Anime Caffe",
        "name:it": "Gonzo Anime",
        "@geometry": "center"
      },
      "geometry": {
        "type": "Point",
        "coordinates": [
          107.6045416,
          -6.9021472
        ]
      },
      "id": "way/530164018"
    },
    {
      "type": "Feature",
      "properties": {
        "@id": "way/530164032",
        "addr:full": "Jalan Cihampelas No. 51B, Coblong, Tamansari, Bandung, Jawa Barat, 40131",
        "amenity": "restaurant",
        "building": "restaurant",
        "name": "Warung Nasi Tegal Cihampelas Jaya",
        "@geometry": "center"
      },
      "geometry": {
        "type": "Point",
        "coordinates": [
          107.6042149,
          -6.9029072
        ]
      },
      "id": "way/530164032"
    },
    {
      "type": "Feature",
      "properties": {
        "@id": "way/530164078",
        "addr:full": "Jalan Cihampelas No.82, Tamansari, Bandung, Tamansari, Bandung Wetan, Kota Bandung, Jawa Barat 40116",
        "amenity": "restaurant",
        "building": "restaurant",
        "name": "Grandia Patisserie",
        "@geometry": "center"
      },
      "geometry": {
        "type": "Point",
        "coordinates": [
          107.6045706,
          -6.9007777
        ]
      },
      "id": "way/530164078"
    },
    {
      "type": "Feature",
      "properties": {
        "@id": "way/530164119",
        "addr:full": "Jalan Linggawastu No.11, Tamansari, Bandung Wetan, Kota Bandung, Jawa Barat 40116",
        "amenity": "cafe",
        "building": "cafe",
        "name": "Yelow Truck Coffe",
        "@geometry": "center"
      },
      "geometry": {
        "type": "Point",
        "coordinates": [
          107.6053089,
          -6.9029278
        ]
      },
      "id": "way/530164119"
    },
    {
      "type": "Feature",
      "properties": {
        "@id": "way/530164122",
        "addr:full": "Jalan Linggawastu no 7, Bandung",
        "amenity": "restaurant",
        "name": "Kedai Lingga 7",
        "@geometry": "center"
      },
      "geometry": {
        "type": "Point",
        "coordinates": [
          107.6051952,
          -6.9031182
        ]
      },
      "id": "way/530164122"
    },
    {
      "type": "Feature",
      "properties": {
        "@id": "way/530164124",
        "addr:full": "Jalan Linggawastu no 5, Bandung",
        "amenity": "restaurant",
        "building": "yes",
        "name": "Rumah Daging",
        "@geometry": "center"
      },
      "geometry": {
        "type": "Point",
        "coordinates": [
          107.6052126,
          -6.9032674
        ]
      },
      "id": "way/530164124"
    },
    {
      "type": "Feature",
      "properties": {
        "@id": "way/530965971",
        "amenity": "restaurant",
        "building": "commercial",
        "cuisine": "mediterranean",
        "delivery": "yes",
        "name": "Kebuli Al-Khalid",
        "takeaway": "only",
        "toilets:access": "private",
        "toilets:wheelchair": "no",
        "wheelchair": "no",
        "@geometry": "center"
      },
      "geometry": {
        "type": "Point",
        "coordinates": [
          107.6608213,
          -6.9156627
        ]
      },
      "id": "way/530965971"
    },
    {
      "type": "Feature",
      "properties": {
        "@id": "way/546617076",
        "amenity": "cafe",
        "building": "yes",
        "name": "Tree House Cafe",
        "@geometry": "center"
      },
      "geometry": {
        "type": "Point",
        "coordinates": [
          107.6150558,
          -6.894562
        ]
      },
      "id": "way/546617076"
    },
    {
      "type": "Feature",
      "properties": {
        "@id": "way/546623264",
        "amenity": "cafe",
        "building": "yes",
        "name": "Ngopi Doeloe Cafe",
        "@geometry": "center"
      },
      "geometry": {
        "type": "Point",
        "coordinates": [
          107.6158108,
          -6.8945796
        ]
      },
      "id": "way/546623264"
    },
    {
      "type": "Feature",
      "properties": {
        "@id": "way/546626775",
        "amenity": "restaurant",
        "building": "yes",
        "cuisine": "regional",
        "name": "Ayam Geprek Bebas",
        "@geometry": "center"
      },
      "geometry": {
        "type": "Point",
        "coordinates": [
          107.6164417,
          -6.8910869
        ]
      },
      "id": "way/546626775"
    },
    {
      "type": "Feature",
      "properties": {
        "@id": "way/546716719",
        "amenity": "restaurant",
        "building": "yes",
        "name": "Upnormal",
        "@geometry": "center"
      },
      "geometry": {
        "type": "Point",
        "coordinates": [
          107.6131236,
          -6.8855516
        ]
      },
      "id": "way/546716719"
    },
    {
      "type": "Feature",
      "properties": {
        "@id": "way/546721631",
        "addr:city": "Bandung, Jawa Barat",
        "addr:postcode": "40135",
        "addr:street": "Jl. Siliwangi No.8, Dago, Kecamatan Coblong, Kota Bandung, Jawa Barat 40135",
        "amenity": "cafe",
        "building": "yes",
        "name": "KOMA Fine Coffee",
        "@geometry": "center"
      },
      "geometry": {
        "type": "Point",
        "coordinates": [
          107.6125532,
          -6.884628
        ]
      },
      "id": "way/546721631"
    },
    {
      "type": "Feature",
      "properties": {
        "@id": "way/548114601",
        "amenity": "fast_food",
        "brand": "McDonald's",
        "brand:wikidata": "Q38076",
        "building": "yes",
        "cuisine": "burger",
        "drive_through": "yes",
        "layer": "1",
        "name": "McDonald's",
        "takeaway": "yes",
        "@geometry": "center"
      },
      "geometry": {
        "type": "Point",
        "coordinates": [
          107.6212164,
          -6.901554
        ]
      },
      "id": "way/548114601"
    },
    {
      "type": "Feature",
      "properties": {
        "@id": "way/550477284",
        "amenity": "restaurant",
        "building": "yes",
        "cuisine": "noodles;yamin",
        "name": "Warung Lela",
        "@geometry": "center"
      },
      "geometry": {
        "type": "Point",
        "coordinates": [
          107.6279509,
          -6.8722123
        ]
      },
      "id": "way/550477284"
    },
    {
      "type": "Feature",
      "properties": {
        "@id": "way/550633633",
        "addr:city": "Bandung",
        "addr:housenumber": "41",
        "addr:postcode": "40143",
        "addr:street": "Jl. Setiabudhi",
        "air_conditioning": "yes",
        "amenity": "restaurant",
        "building": "yes",
        "cuisine": "indonesian",
        "name": "Foodcourt Rumah Mode",
        "payment:coins": "yes",
        "payment:gopay_id": "yes",
        "payment:notes": "yes",
        "@geometry": "center"
      },
      "geometry": {
        "type": "Point",
        "coordinates": [
          107.5994553,
          -6.8828547
        ]
      },
      "id": "way/550633633"
    },
    {
      "type": "Feature",
      "properties": {
        "@id": "way/550634184",
        "amenity": "restaurant",
        "name": "Mr Roastman Experience",
        "opening_hours": "Mo-Fr 08:00-21:00; Sa-Su 07:00-21:00",
        "website": "https://mrroastman.com",
        "@geometry": "center"
      },
      "geometry": {
        "type": "Point",
        "coordinates": [
          107.6052627,
          -6.8732675
        ]
      },
      "id": "way/550634184"
    },
    {
      "type": "Feature",
      "properties": {
        "@id": "way/630307493",
        "amenity": "cafe",
        "building": "yes",
        "name": "Iriz-u Coffee",
        "@geometry": "center"
      },
      "geometry": {
        "type": "Point",
        "coordinates": [
          107.6740138,
          -6.9241203
        ]
      },
      "id": "way/630307493"
    },
    {
      "type": "Feature",
      "properties": {
        "@id": "way/630357609",
        "amenity": "cafe",
        "building": "yes",
        "name": "Broy.co",
        "@geometry": "center"
      },
      "geometry": {
        "type": "Point",
        "coordinates": [
          107.672741,
          -6.921737
        ]
      },
      "id": "way/630357609"
    },
    {
      "type": "Feature",
      "properties": {
        "@id": "way/632254937",
        "addr:city": "Kota Bandung",
        "addr:housenumber": "3",
        "addr:postcode": "40242",
        "addr:street": "Jalan Peta",
        "amenity": "restaurant",
        "building": "yes",
        "cuisine": "bakso",
        "diet:halal": "yes",
        "diet:local": "yes",
        "diet:meat": "yes",
        "name": "Bakso Beranak Raja & Ratu",
        "opening_hours": "Mo-Su 10:00-22:00",
        "@geometry": "center"
      },
      "geometry": {
        "type": "Point",
        "coordinates": [
          107.6027325,
          -6.9374728
        ]
      },
      "id": "way/632254937"
    },
    {
      "type": "Feature",
      "properties": {
        "@id": "way/632651215",
        "amenity": "restaurant",
        "building": "yes",
        "name": "Bumi Sunda",
        "@geometry": "center"
      },
      "geometry": {
        "type": "Point",
        "coordinates": [
          107.6076943,
          -6.9372757
        ]
      },
      "id": "way/632651215"
    },
    {
      "type": "Feature",
      "properties": {
        "@id": "way/632651219",
        "amenity": "restaurant",
        "building": "yes",
        "name": "Warung Steak &Shake",
        "@geometry": "center"
      },
      "geometry": {
        "type": "Point",
        "coordinates": [
          107.6081908,
          -6.9373072
        ]
      },
      "id": "way/632651219"
    },
    {
      "type": "Feature",
      "properties": {
        "@id": "way/632659707",
        "amenity": "restaurant",
        "building": "yes",
        "cuisine": "mediterranean",
        "name": "Emado's Shawarma",
        "opening_hours": "Mo-Su 09:00-21:00",
        "takeaway": "yes",
        "wheelchair": "limited",
        "@geometry": "center"
      },
      "geometry": {
        "type": "Point",
        "coordinates": [
          107.62614,
          -6.9401802
        ]
      },
      "id": "way/632659707"
    },
    {
      "type": "Feature",
      "properties": {
        "@id": "way/632660013",
        "amenity": "fast_food",
        "brand": "Subway",
        "brand:wikidata": "Q244457",
        "building": "yes",
        "cuisine": "sandwich",
        "name": "Subway",
        "takeaway": "yes",
        "wheelchair": "limited",
        "@geometry": "center"
      },
      "geometry": {
        "type": "Point",
        "coordinates": [
          107.6272706,
          -6.9414476
        ]
      },
      "id": "way/632660013"
    },
    {
      "type": "Feature",
      "properties": {
        "@id": "way/632660234",
        "amenity": "fast_food",
        "brand": "Pizza Hut",
        "building": "retail",
        "cuisine": "pizza",
        "delivery": "yes",
        "name": "Pizza Hut Delivery",
        "opening_hours": "Mo-Su 09:00-22:00",
        "opening_hours:kitchen": "Mo-Su 09:00-22:00",
        "outdoor_seating": "yes",
        "takeaway": "yes",
        "@geometry": "center"
      },
      "geometry": {
        "type": "Point",
        "coordinates": [
          107.6291925,
          -6.9386449
        ]
      },
      "id": "way/632660234"
    },
    {
      "type": "Feature",
      "properties": {
        "@id": "way/632673822",
        "amenity": "fast_food",
        "building": "commercial",
        "building:use": "retail",
        "changing_table": "limited",
        "cuisine": "chicken;coffee_shop",
        "delivery": "yes",
        "highchair": "yes",
        "kids_area": "yes",
        "level": "2",
        "name": "Richeese Factory",
        "opening_hours": "Mo-Su 09:00-21:00",
        "smoking": "separated",
        "takeaway": "yes",
        "toilets": "yes",
        "toilets:access": "customers",
        "toilets:wheelchair": "limited",
        "wheelchair": "limited",
        "@geometry": "center"
      },
      "geometry": {
        "type": "Point",
        "coordinates": [
          107.6310687,
          -6.9453435
        ]
      },
      "id": "way/632673822"
    },
    {
      "type": "Feature",
      "properties": {
        "@id": "way/632678871",
        "amenity": "cafe",
        "building": "yes",
        "name": "Myeong Gal Korean Bar",
        "@geometry": "center"
      },
      "geometry": {
        "type": "Point",
        "coordinates": [
          107.6237045,
          -6.9383477
        ]
      },
      "id": "way/632678871"
    },
    {
      "type": "Feature",
      "properties": {
        "@id": "way/632679025",
        "amenity": "restaurant",
        "brand": "Restoran",
        "building": "yes",
        "cuisine": "indonesian;padangan",
        "name": "Bu Mus",
        "opening_hours": "Mo-Su 09:00-21:00, 2023 Mar 23-2023 Apr 25 closed \"Puasa Bu Mus Libur 1 bulan\"",
        "takeaway": "yes",
        "wheelchair": "limited",
        "@geometry": "center"
      },
      "geometry": {
        "type": "Point",
        "coordinates": [
          107.6247105,
          -6.939343
        ]
      },
      "id": "way/632679025"
    },
    {
      "type": "Feature",
      "properties": {
        "@id": "way/632681307",
        "amenity": "restaurant",
        "building": "commercial",
        "cuisine": "korean",
        "level": "2",
        "name": "Chingu",
        "opening_hours": "Mo-Su 09:00-21:00",
        "outdoor_seating": "yes",
        "takeaway": "yes",
        "toilets:access": "customers",
        "wheelchair": "limited",
        "@geometry": "center"
      },
      "geometry": {
        "type": "Point",
        "coordinates": [
          107.62665,
          -6.9413261
        ]
      },
      "id": "way/632681307"
    },
    {
      "type": "Feature",
      "properties": {
        "@id": "way/632681497",
        "addr:housenumber": "232C",
        "addr:street": "Jalan Buah Batu",
        "amenity": "restaurant",
        "building": "yes",
        "cuisine": "indonesian",
        "diet:halal": "yes",
        "name": "Warung Nasi Tegal AR",
        "@geometry": "center"
      },
      "geometry": {
        "type": "Point",
        "coordinates": [
          107.6276803,
          -6.9423915
        ]
      },
      "id": "way/632681497"
    },
    {
      "type": "Feature",
      "properties": {
        "@id": "way/632681637",
        "addr:city": "Bandung",
        "addr:housenumber": "234",
        "addr:postcode": "40265",
        "addr:province": "Jawa Barat",
        "addr:street": "Jalan Buah Batu",
        "amenity": "restaurant",
        "building": "yes",
        "cuisine": "indonesian;coffee_shop;chicken",
        "diet:halal": "yes",
        "name": "Ayam Kalasan 727",
        "phone": "+6285156094294",
        "@geometry": "center"
      },
      "geometry": {
        "type": "Point",
        "coordinates": [
          107.6286947,
          -6.9434542
        ]
      },
      "id": "way/632681637"
    },
    {
      "type": "Feature",
      "properties": {
        "@id": "way/633530194",
        "addr:city": "Bandung",
        "addr:postcode": "40281",
        "addr:street": "Jalan Ibrahim Adji",
        "amenity": "cafe",
        "building": "yes",
        "name": "ESKO Cafe",
        "@geometry": "center"
      },
      "geometry": {
        "type": "Point",
        "coordinates": [
          107.6418121,
          -6.9437732
        ]
      },
      "id": "way/633530194"
    },
    {
      "type": "Feature",
      "properties": {
        "@id": "way/633734524",
        "addr:city": "Bandung",
        "addr:housenumber": "33-1",
        "addr:province": "Jawa Barat",
        "addr:street": "Jalan Sumber Mekar",
        "addr:suburb": "Sumber Sari",
        "amenity": "restaurant",
        "building": "retail",
        "cuisine": "tegalan",
        "name": "Bahari",
        "opening_hours": "Mo-Su 08:00-20:30; PH closed",
        "ref": "HPWBR 17",
        "takeaway": "yes",
        "@geometry": "center"
      },
      "geometry": {
        "type": "Point",
        "coordinates": [
          107.5746081,
          -6.9326686
        ]
      },
      "id": "way/633734524"
    },
    {
      "type": "Feature",
      "properties": {
        "@id": "way/636169272",
        "amenity": "restaurant",
        "building": "yes",
        "name": "Simpang Raya",
        "@geometry": "center"
      },
      "geometry": {
        "type": "Point",
        "coordinates": [
          107.5876762,
          -6.8949521
        ]
      },
      "id": "way/636169272"
    },
    {
      "type": "Feature",
      "properties": {
        "@id": "way/636425764",
        "amenity": "restaurant",
        "building": "retail",
        "building:use": "commercial",
        "cuisine": "padangan;indonesian",
        "name": "Nanibar Kapau",
        "opening_hours": "Mo-Su 09:00-21:00",
        "@geometry": "center"
      },
      "geometry": {
        "type": "Point",
        "coordinates": [
          107.6320976,
          -6.9259554
        ]
      },
      "id": "way/636425764"
    },
    {
      "type": "Feature",
      "properties": {
        "@id": "way/637407891",
        "amenity": "restaurant",
        "building": "yes",
        "description": "Ini adalah salah satu warungmakan di dagoasri\n#grabcgise2018_team1",
        "name": "Warung Dago Asri",
        "@geometry": "center"
      },
      "geometry": {
        "type": "Point",
        "coordinates": [
          107.6153168,
          -6.8785202
        ]
      },
      "id": "way/637407891"
    },
    {
      "type": "Feature",
      "properties": {
        "@id": "way/637407892",
        "addr:city": "Bandung",
        "addr:postcode": "40135",
        "addr:street": "Jalan Alpina",
        "amenity": "cafe",
        "building": "yes",
        "name": "Kafe Leis",
        "@geometry": "center"
      },
      "geometry": {
        "type": "Point",
        "coordinates": [
          107.6127851,
          -6.8792507
        ]
      },
      "id": "way/637407892"
    },
    {
      "type": "Feature",
      "properties": {
        "@id": "way/637415694",
        "amenity": "restaurant",
        "building": "yes",
        "name": "Restoran Mie",
        "@geometry": "center"
      },
      "geometry": {
        "type": "Point",
        "coordinates": [
          107.6174494,
          -6.8971782
        ]
      },
      "id": "way/637415694"
    },
    {
      "type": "Feature",
      "properties": {
        "@id": "way/637416757",
        "amenity": "restaurant",
        "building": "yes",
        "capacity": "50",
        "name": "Rumah makan Palanta Minang",
        "opening_hours": "Mo-Sa 08:00-20:00",
        "takeaway": "yes",
        "@geometry": "center"
      },
      "geometry": {
        "type": "Point",
        "coordinates": [
          107.6116255,
          -6.8830403
        ]
      },
      "id": "way/637416757"
    },
    {
      "type": "Feature",
      "properties": {
        "@id": "way/637417274",
        "addr:city": "Bandung, Jawa Barat",
        "addr:postcode": "40135",
        "addr:street": "Jalan Cisitu Lama",
        "amenity": "cafe",
        "building": "yes",
        "name": "Cafe",
        "@geometry": "center"
      },
      "geometry": {
        "type": "Point",
        "coordinates": [
          107.6118307,
          -6.8830301
        ]
      },
      "id": "way/637417274"
    },
    {
      "type": "Feature",
      "properties": {
        "@id": "way/637421286",
        "amenity": "restaurant",
        "building": "yes",
        "name": "Rumah Makan Bu Tatang",
        "@geometry": "center"
      },
      "geometry": {
        "type": "Point",
        "coordinates": [
          107.6209645,
          -6.8891109
        ]
      },
      "id": "way/637421286"
    },
    {
      "type": "Feature",
      "properties": {
        "@id": "way/637422881",
        "amenity": "restaurant",
        "building": "yes",
        "name": "Sabana Fried Chicken",
        "@geometry": "center"
      },
      "geometry": {
        "type": "Point",
        "coordinates": [
          107.6118551,
          -6.8822967
        ]
      },
      "id": "way/637422881"
    },
    {
      "type": "Feature",
      "properties": {
        "@id": "way/637425365",
        "amenity": "restaurant",
        "building": "yes",
        "name": "Rumah Makan Cempaka",
        "@geometry": "center"
      },
      "geometry": {
        "type": "Point",
        "coordinates": [
          107.610966,
          -6.8797972
        ]
      },
      "id": "way/637425365"
    },
    {
      "type": "Feature",
      "properties": {
        "@id": "way/637426848",
        "amenity": "restaurant",
        "building": "yes",
        "capacity": "15",
        "name": "Dapur Nunomy",
        "opening_hours": "Mo-Sa 08:00-20:00",
        "@geometry": "center"
      },
      "geometry": {
        "type": "Point",
        "coordinates": [
          107.6119044,
          -6.8817134
        ]
      },
      "id": "way/637426848"
    },
    {
      "type": "Feature",
      "properties": {
        "@id": "way/637428417",
        "amenity": "restaurant",
        "building": "yes",
        "name": "Rumah makan Taraso",
        "@geometry": "center"
      },
      "geometry": {
        "type": "Point",
        "coordinates": [
          107.6125105,
          -6.881932
        ]
      },
      "id": "way/637428417"
    },
    {
      "type": "Feature",
      "properties": {
        "@id": "way/637429214",
        "amenity": "restaurant",
        "building": "yes",
        "name": "The City",
        "@geometry": "center"
      },
      "geometry": {
        "type": "Point",
        "coordinates": [
          107.6148218,
          -6.9067292
        ]
      },
      "id": "way/637429214"
    },
    {
      "type": "Feature",
      "properties": {
        "@id": "way/637429255",
        "amenity": "restaurant",
        "building": "yes",
        "name": "Angkringan Rumah Nenek",
        "@geometry": "center"
      },
      "geometry": {
        "type": "Point",
        "coordinates": [
          107.6127948,
          -6.8822515
        ]
      },
      "id": "way/637429255"
    },
    {
      "type": "Feature",
      "properties": {
        "@id": "way/638385048",
        "amenity": "cafe",
        "building": "yes",
        "internet_access": "wlan",
        "name": "Layung Coffee Roastery",
        "outdoor_seating": "yes",
        "@geometry": "center"
      },
      "geometry": {
        "type": "Point",
        "coordinates": [
          107.6894382,
          -6.9167813
        ]
      },
      "id": "way/638385048"
    },
    {
      "type": "Feature",
      "properties": {
        "@id": "way/638388745",
        "amenity": "fast_food",
        "building": "yes",
        "cuisine": "burger",
        "@geometry": "center"
      },
      "geometry": {
        "type": "Point",
        "coordinates": [
          107.5810311,
          -6.885879
        ]
      },
      "id": "way/638388745"
    },
    {
      "type": "Feature",
      "properties": {
        "@id": "way/638388819",
        "alt_name": "Kentucky Fried Chicken",
        "amenity": "fast_food",
        "branch": "Surya Sumantri",
        "brand": "KFC",
        "brand:wikidata": "Q524757",
        "building": "yes",
        "cuisine": "chicken",
        "highchair": "yes",
        "internet_access": "wlan",
        "internet_access:fee": "no",
        "name": "KFC",
        "opening_hours": "Mo-Su 09:00-22:00",
        "smoking": "separated",
        "takeaway": "yes",
        "wheelchair": "limited",
        "@geometry": "center"
      },
      "geometry": {
        "type": "Point",
        "coordinates": [
          107.5811514,
          -6.8872288
        ]
      },
      "id": "way/638388819"
    },
    {
      "type": "Feature",
      "properties": {
        "@id": "way/638394110",
        "amenity": "cafe",
        "building": "yes",
        "cuisine": "coffee_shop",
        "@geometry": "center"
      },
      "geometry": {
        "type": "Point",
        "coordinates": [
          107.5786824,
          -6.8816561
        ]
      },
      "id": "way/638394110"
    },
    {
      "type": "Feature",
      "properties": {
        "@id": "way/638470830",
        "amenity": "restaurant",
        "building": "yes",
        "cuisine": "asian;padang",
        "diet:halal": "yes",
        "name": "RM. Sederhana",
        "@geometry": "center"
      },
      "geometry": {
        "type": "Point",
        "coordinates": [
          107.5890237,
          -6.8948659
        ]
      },
      "id": "way/638470830"
    },
    {
      "type": "Feature",
      "properties": {
        "@id": "way/648355986",
        "addr:city": "Bandung",
        "addr:district": "Coblong",
        "addr:postcode": "40135",
        "addr:province": "Jawa Barat",
        "addr:street": "Jalan Cisitu Indah",
        "addr:subdistrict": "Dago",
        "air_conditioning": "no",
        "amenity": "restaurant",
        "building": "yes",
        "cuisine": "food;fried_food;ayam_geprek",
        "diet:halal": "only",
        "name": "CRISBAR",
        "smoking": "outside",
        "@geometry": "center"
      },
      "geometry": {
        "type": "Point",
        "coordinates": [
          107.612631,
          -6.8788461
        ]
      },
      "id": "way/648355986"
    },
    {
      "type": "Feature",
      "properties": {
        "@id": "way/711229872",
        "amenity": "cafe",
        "building": "yes",
        "name": "Caffetaria",
        "@geometry": "center"
      },
      "geometry": {
        "type": "Point",
        "coordinates": [
          107.5941642,
          -6.8595488
        ]
      },
      "id": "way/711229872"
    },
    {
      "type": "Feature",
      "properties": {
        "@id": "way/731259292",
        "amenity": "restaurant",
        "building": "yes",
        "name": "Kantin PKM",
        "@geometry": "center"
      },
      "geometry": {
        "type": "Point",
        "coordinates": [
          107.5934738,
          -6.8623568
        ]
      },
      "id": "way/731259292"
    },
    {
      "type": "Feature",
      "properties": {
        "@id": "way/763761346",
        "amenity": "cafe",
        "branch": "Point",
        "brand": "Indomaret",
        "brand:wikidata": "Q4262825",
        "building": "yes",
        "name": "Indomaret",
        "shop": "convenience",
        "@geometry": "center"
      },
      "geometry": {
        "type": "Point",
        "coordinates": [
          107.6419564,
          -6.9167704
        ]
      },
      "id": "way/763761346"
    },
    {
      "type": "Feature",
      "properties": {
        "@id": "way/769459958",
        "amenity": "restaurant",
        "building": "yes",
        "cuisine": "noodle;roti_bakar;bubur_kacang_iho",
        "name": "Sadikin",
        "@geometry": "center"
      },
      "geometry": {
        "type": "Point",
        "coordinates": [
          107.6127129,
          -6.8793819
        ]
      },
      "id": "way/769459958"
    },
    {
      "type": "Feature",
      "properties": {
        "@id": "way/829328767",
        "amenity": "restaurant",
        "building": "yes",
        "name": "Es Kelapa Muda Rizky",
        "@geometry": "center"
      },
      "geometry": {
        "type": "Point",
        "coordinates": [
          107.6320491,
          -6.8847325
        ]
      },
      "id": "way/829328767"
    },
    {
      "type": "Feature",
      "properties": {
        "@id": "way/855747979",
        "amenity": "restaurant",
        "building": "commercial",
        "building:levels": "1",
        "building:use": "retail",
        "cuisine": "padangan;indonesian",
        "delivery": "yes",
        "name": "Amanah Logam",
        "reservation": "no",
        "takeaway": "yes",
        "wheelchair": "limited",
        "@geometry": "center"
      },
      "geometry": {
        "type": "Point",
        "coordinates": [
          107.6440822,
          -6.9609664
        ]
      },
      "id": "way/855747979"
    },
    {
      "type": "Feature",
      "properties": {
        "@id": "way/858677609",
        "amenity": "restaurant",
        "building": "retail",
        "cuisine": "tegalan",
        "name": "Bahari",
        "@geometry": "center"
      },
      "geometry": {
        "type": "Point",
        "coordinates": [
          107.7162503,
          -6.9330257
        ]
      },
      "id": "way/858677609"
    },
    {
      "type": "Feature",
      "properties": {
        "@id": "way/858677919",
        "addr:city": "Bandung",
        "addr:housenumber": "31",
        "addr:postcode": "40626",
        "addr:street": "Cibiru",
        "amenity": "cafe",
        "building": "yes",
        "cuisine": "daerahregional",
        "internet_access": "wlan",
        "internet_access:fee": "no",
        "name": "Warmindo Yayang",
        "opening_hours": "24/7",
        "@geometry": "center"
      },
      "geometry": {
        "type": "Point",
        "coordinates": [
          107.7170311,
          -6.9342264
        ]
      },
      "id": "way/858677919"
    },
    {
      "type": "Feature",
      "properties": {
        "@id": "way/858679677",
        "amenity": "restaurant",
        "building": "retail",
        "cuisine": "tegalan",
        "name": "Karya Bahari",
        "@geometry": "center"
      },
      "geometry": {
        "type": "Point",
        "coordinates": [
          107.7144295,
          -6.9316872
        ]
      },
      "id": "way/858679677"
    },
    {
      "type": "Feature",
      "properties": {
        "@id": "way/863208211",
        "amenity": "restaurant",
        "building": "yes",
        "name": "Madu Perhutani",
        "@geometry": "center"
      },
      "geometry": {
        "type": "Point",
        "coordinates": [
          107.5975452,
          -6.8431629
        ]
      },
      "id": "way/863208211"
    },
    {
      "type": "Feature",
      "properties": {
        "@id": "way/866907262",
        "addr:city": "Bandung, Jawa Barat",
        "addr:postcode": "40135",
        "addr:street": "Jalan Cisitu Baru",
        "amenity": "cafe",
        "building": "yes",
        "name": "Cikopi",
        "@geometry": "center"
      },
      "geometry": {
        "type": "Point",
        "coordinates": [
          107.6123617,
          -6.8842029
        ]
      },
      "id": "way/866907262"
    },
    {
      "type": "Feature",
      "properties": {
        "@id": "way/866946501",
        "addr:city": "Bandung, Jawa Barat",
        "addr:postcode": "40135",
        "addr:street": "Jalan Kidang Pananjung",
        "amenity": "cafe",
        "building": "yes",
        "name": "Parc C Coffe & Eatery",
        "@geometry": "center"
      },
      "geometry": {
        "type": "Point",
        "coordinates": [
          107.6136553,
          -6.882545
        ]
      },
      "id": "way/866946501"
    },
    {
      "type": "Feature",
      "properties": {
        "@id": "way/866946502",
        "addr:city": "Bandung, Jawa Barat",
        "addr:postcode": "40135",
        "addr:street": "Jalan Kidang Pananjung",
        "amenity": "cafe",
        "building": "yes",
        "name": "Parc C Coffe & Eatery",
        "@geometry": "center"
      },
      "geometry": {
        "type": "Point",
        "coordinates": [
          107.6137274,
          -6.8824294
        ]
      },
      "id": "way/866946502"
    },
    {
      "type": "Feature",
      "properties": {
        "@id": "way/866946503",
        "addr:city": "Bandung, Jawa Barat",
        "addr:postcode": "40135",
        "addr:street": "Jalan Kidang Pananjung",
        "amenity": "cafe",
        "building": "yes",
        "name": "Parc C Coffe & Eatery",
        "@geometry": "center"
      },
      "geometry": {
        "type": "Point",
        "coordinates": [
          107.6137763,
          -6.8823754
        ]
      },
      "id": "way/866946503"
    },
    {
      "type": "Feature",
      "properties": {
        "@id": "way/866946504",
        "addr:city": "Bandung, Jawa Barat",
        "addr:postcode": "40135",
        "addr:street": "Jalan Kidang Pananjung",
        "amenity": "cafe",
        "building": "yes",
        "name": "Parc C Coffe & Eatery",
        "@geometry": "center"
      },
      "geometry": {
        "type": "Point",
        "coordinates": [
          107.6136486,
          -6.8823576
        ]
      },
      "id": "way/866946504"
    },
    {
      "type": "Feature",
      "properties": {
        "@id": "way/867199861",
        "addr:city": "Bandung",
        "addr:postcode": "40135",
        "addr:street": "Jalan Cisitu Lama",
        "amenity": "cafe",
        "building": "yes",
        "name": "Kopi Tentrem",
        "@geometry": "center"
      },
      "geometry": {
        "type": "Point",
        "coordinates": [
          107.6124665,
          -6.8795268
        ]
      },
      "id": "way/867199861"
    },
    {
      "type": "Feature",
      "properties": {
        "@id": "way/867209817",
        "amenity": "cafe",
        "building": "yes",
        "@geometry": "center"
      },
      "geometry": {
        "type": "Point",
        "coordinates": [
          107.6113622,
          -6.8836964
        ]
      },
      "id": "way/867209817"
    },
    {
      "type": "Feature",
      "properties": {
        "@id": "way/868633544",
        "addr:city": "Bandung",
        "addr:street": "Jalan Insinyur Haji Juanda",
        "amenity": "cafe",
        "building": "yes",
        "cuisine": "pizza;american",
        "name": "Domino Pizza Dago",
        "@geometry": "center"
      },
      "geometry": {
        "type": "Point",
        "coordinates": [
          107.6161215,
          -6.8799953
        ]
      },
      "id": "way/868633544"
    },
    {
      "type": "Feature",
      "properties": {
        "@id": "way/871516184",
        "addr:city": "Dago, Coblong, Kota Bandung, Jawa Barat",
        "addr:postcode": "40135",
        "addr:street": "Jalan Insinyur Haji Juanda",
        "amenity": "cafe",
        "building": "yes",
        "name": "Prabu Coffe",
        "@geometry": "center"
      },
      "geometry": {
        "type": "Point",
        "coordinates": [
          107.6186027,
          -6.8750323
        ]
      },
      "id": "way/871516184"
    },
    {
      "type": "Feature",
      "properties": {
        "@id": "way/871816999",
        "amenity": "restaurant",
        "building": "yes",
        "@geometry": "center"
      },
      "geometry": {
        "type": "Point",
        "coordinates": [
          107.6193903,
          -6.8674595
        ]
      },
      "id": "way/871816999"
    },
    {
      "type": "Feature",
      "properties": {
        "@id": "way/871821146",
        "amenity": "restaurant",
        "building": "yes",
        "@geometry": "center"
      },
      "geometry": {
        "type": "Point",
        "coordinates": [
          107.6194658,
          -6.8675543
        ]
      },
      "id": "way/871821146"
    },